[
  {
    "@context": "http://schema.org",
    "@type": [
      "Event"
    ],
    "name": "Musik, Tanz und Stimmung mit Alleinunterhalter Ervin",
    "eventStatus": "http://schema.org/EventScheduled",
    "organizer": {
      "@type": "Organization",
      "name": "Am Kurpark",
      "address": {
        "@type": "PostalAddress",
        "streetAddress": "Olympiastraße 101",
        "addressLocality": "Seefeld",
        "postalCode": "6100",
        "addressCountry": "AT",
        "telephone": "+4352122191",
        "url": "http://www.kaltschmid.info"
      }
    },
    "location": {
      "@type": "Place",
      "name": "Am Kurpark",
      "address": {
        "@type": "PostalAddress",
        "streetAddress": "Olympiastraße 101",
        "addressLocality": "Seefeld",
        "postalCode": "6100",
        "addressCountry": "AT",
        "telephone": "+4352122191",
        "url": "http://www.kaltschmid.info"
      }
    },
    "image": [
      {
        "@type": "ImageObject",
        "url": "http://resc.deskline.net/images/SEE/1/ceb7e3c0-1a60-4b1e-9272-a5a895d75890/99/image.jpg",
        "caption": "Am Kurpark"
      }
    ],
    "url": [
      "http://www.kaltschmid.info"
    ],
    "startDate": "2016-12-22T20:00:00",
    "endDate": "2016-12-23"
  },
  {
    "@context": "http://schema.org",
    "@type": [
      "Event"
    ],
    "name": "Musik, Tanz und Stimmung mit Alleinunterhalter Ervin",
    "eventStatus": "http://schema.org/EventScheduled",
    "organizer": {
      "@type": "Organization",
      "name": "Am Kurpark",
      "address": {
        "@type": "PostalAddress",
        "streetAddress": "Olympiastraße 101",
        "addressLocality": "Seefeld",
        "postalCode": "6100",
        "addressCountry": "AT",
        "telephone": "+4352122191",
        "url": "http://www.kaltschmid.info"
      }
    },
    "location": {
      "@type": "Place",
      "name": "Am Kurpark",
      "address": {
        "@type": "PostalAddress",
        "streetAddress": "Olympiastraße 101",
        "addressLocality": "Seefeld",
        "postalCode": "6100",
        "addressCountry": "AT",
        "telephone": "+4352122191",
        "url": "http://www.kaltschmid.info"
      }
    },
    "image": [
      {
        "@type": "ImageObject",
        "url": "http://resc.deskline.net/images/SEE/1/ceb7e3c0-1a60-4b1e-9272-a5a895d75890/99/image.jpg",
        "caption": "Am Kurpark"
      }
    ],
    "url": [
      "http://www.kaltschmid.info"
    ],
    "startDate": "2016-12-25T20:00:00",
    "endDate": "2016-12-30"
  },
  {
    "@context": "http://schema.org",
    "@type": [
      "Event"
    ],
    "name": "Musik, Tanz und Stimmung mit Alleinunterhalter Ervin",
    "eventStatus": "http://schema.org/EventScheduled",
    "organizer": {
      "@type": "Organization",
      "name": "Am Kurpark",
      "address": {
        "@type": "PostalAddress",
        "streetAddress": "Olympiastraße 101",
        "addressLocality": "Seefeld",
        "postalCode": "6100",
        "addressCountry": "AT",
        "telephone": "+4352122191",
        "url": "http://www.kaltschmid.info"
      }
    },
    "location": {
      "@type": "Place",
      "name": "Am Kurpark",
      "address": {
        "@type": "PostalAddress",
        "streetAddress": "Olympiastraße 101",
        "addressLocality": "Seefeld",
        "postalCode": "6100",
        "addressCountry": "AT",
        "telephone": "+4352122191",
        "url": "http://www.kaltschmid.info"
      }
    },
    "image": [
      {
        "@type": "ImageObject",
        "url": "http://resc.deskline.net/images/SEE/1/ceb7e3c0-1a60-4b1e-9272-a5a895d75890/99/image.jpg",
        "caption": "Am Kurpark"
      }
    ],
    "url": [
      "http://www.kaltschmid.info"
    ],
    "startDate": "2017-01-01T20:00:00",
    "endDate": "2017-02-26"
  },
  {
    "@context": "http://schema.org",
    "@type": [
      "Event"
    ],
    "name": "Musik, Tanz und Stimmung mit Alleinunterhalter Ervin",
    "eventStatus": "http://schema.org/EventScheduled",
    "organizer": {
      "@type": "Organization",
      "name": "Am Kurpark",
      "address": {
        "@type": "PostalAddress",
        "streetAddress": "Olympiastraße 101",
        "addressLocality": "Seefeld",
        "postalCode": "6100",
        "addressCountry": "AT",
        "telephone": "+4352122191",
        "url": "http://www.kaltschmid.info"
      }
    },
    "location": {
      "@type": "Place",
      "name": "Am Kurpark",
      "address": {
        "@type": "PostalAddress",
        "streetAddress": "Olympiastraße 101",
        "addressLocality": "Seefeld",
        "postalCode": "6100",
        "addressCountry": "AT",
        "telephone": "+4352122191",
        "url": "http://www.kaltschmid.info"
      }
    },
    "image": [
      {
        "@type": "ImageObject",
        "url": "http://resc.deskline.net/images/SEE/1/ceb7e3c0-1a60-4b1e-9272-a5a895d75890/99/image.jpg",
        "caption": "Am Kurpark"
      }
    ],
    "url": [
      "http://www.kaltschmid.info"
    ],
    "startDate": "2017-03-02T20:00:00",
    "endDate": "2017-03-18"
  }
]