[
  {
    "@context": "http://schema.org",
    "@type": [
      "Event"
    ],
    "name": "Platzkonzert der Musikkapelle Leutasch",
    "eventStatus": "http://schema.org/EventScheduled",
    "organizer": {
      "@type": "Organization",
      "name": "Informationsbüro Leutasch",
      "address": {
        "@type": "PostalAddress",
        "streetAddress": "Weidach 320",
        "addressLocality": "Leutasch",
        "postalCode": "6105",
        "addressCountry": "AT",
        "telephone": "+43-50880510",
        "faxNumber": "+43-50880811",
        "email": "info.leutasch@seefeld.com",
        "url": "http://www.seefeld.com"
      }
    },
    "location": {
      "@type": "Place",
      "name": "Musikpavillon",
      "address": {
        "@type": "PostalAddress",
        "streetAddress": "Weidach 337",
        "addressLocality": "Leutasch",
        "postalCode": "6105",
        "addressCountry": "AT"
      }
    },
    "description": "Freier Eintritt!",
    "image": [
      {
        "@type": "ImageObject",
        "url": "http://resc.deskline.net/images/SEE/1/589d8f3a-4d43-48e9-ba3c-6bf5589da192/99/image.jpg",
        "caption": "mk"
      }
    ],
    "startDate": "2017-06-23T20:15:00",
    "endDate": "2017-06-23"
  },
  {
    "@context": "http://schema.org",
    "@type": [
      "Event"
    ],
    "name": "Platzkonzert der Musikkapelle Leutasch",
    "eventStatus": "http://schema.org/EventScheduled",
    "organizer": {
      "@type": "Organization",
      "name": "Informationsbüro Leutasch",
      "address": {
        "@type": "PostalAddress",
        "streetAddress": "Weidach 320",
        "addressLocality": "Leutasch",
        "postalCode": "6105",
        "addressCountry": "AT",
        "telephone": "+43-50880510",
        "faxNumber": "+43-50880811",
        "email": "info.leutasch@seefeld.com",
        "url": "http://www.seefeld.com"
      }
    },
    "location": {
      "@type": "Place",
      "name": "Musikpavillon",
      "address": {
        "@type": "PostalAddress",
        "streetAddress": "Weidach 337",
        "addressLocality": "Leutasch",
        "postalCode": "6105",
        "addressCountry": "AT"
      }
    },
    "description": "Freier Eintritt!",
    "image": [
      {
        "@type": "ImageObject",
        "url": "http://resc.deskline.net/images/SEE/1/589d8f3a-4d43-48e9-ba3c-6bf5589da192/99/image.jpg",
        "caption": "mk"
      }
    ],
    "startDate": "2017-07-06T20:15:00",
    "endDate": "2017-07-06"
  },
  {
    "@context": "http://schema.org",
    "@type": [
      "Event"
    ],
    "name": "Platzkonzert der Musikkapelle Leutasch",
    "eventStatus": "http://schema.org/EventScheduled",
    "organizer": {
      "@type": "Organization",
      "name": "Informationsbüro Leutasch",
      "address": {
        "@type": "PostalAddress",
        "streetAddress": "Weidach 320",
        "addressLocality": "Leutasch",
        "postalCode": "6105",
        "addressCountry": "AT",
        "telephone": "+43-50880510",
        "faxNumber": "+43-50880811",
        "email": "info.leutasch@seefeld.com",
        "url": "http://www.seefeld.com"
      }
    },
    "location": {
      "@type": "Place",
      "name": "Musikpavillon",
      "address": {
        "@type": "PostalAddress",
        "streetAddress": "Weidach 337",
        "addressLocality": "Leutasch",
        "postalCode": "6105",
        "addressCountry": "AT"
      }
    },
    "description": "Freier Eintritt!",
    "image": [
      {
        "@type": "ImageObject",
        "url": "http://resc.deskline.net/images/SEE/1/589d8f3a-4d43-48e9-ba3c-6bf5589da192/99/image.jpg",
        "caption": "mk"
      }
    ],
    "startDate": "2017-07-13T20:15:00",
    "endDate": "2017-07-13"
  },
  {
    "@context": "http://schema.org",
    "@type": [
      "Event"
    ],
    "name": "Platzkonzert der Musikkapelle Leutasch",
    "eventStatus": "http://schema.org/EventScheduled",
    "organizer": {
      "@type": "Organization",
      "name": "Informationsbüro Leutasch",
      "address": {
        "@type": "PostalAddress",
        "streetAddress": "Weidach 320",
        "addressLocality": "Leutasch",
        "postalCode": "6105",
        "addressCountry": "AT",
        "telephone": "+43-50880510",
        "faxNumber": "+43-50880811",
        "email": "info.leutasch@seefeld.com",
        "url": "http://www.seefeld.com"
      }
    },
    "location": {
      "@type": "Place",
      "name": "Musikpavillon",
      "address": {
        "@type": "PostalAddress",
        "streetAddress": "Weidach 337",
        "addressLocality": "Leutasch",
        "postalCode": "6105",
        "addressCountry": "AT"
      }
    },
    "description": "Freier Eintritt!",
    "image": [
      {
        "@type": "ImageObject",
        "url": "http://resc.deskline.net/images/SEE/1/589d8f3a-4d43-48e9-ba3c-6bf5589da192/99/image.jpg",
        "caption": "mk"
      }
    ],
    "startDate": "2017-07-27T20:15:00",
    "endDate": "2017-07-27"
  },
  {
    "@context": "http://schema.org",
    "@type": [
      "Event"
    ],
    "name": "Platzkonzert der Musikkapelle Leutasch",
    "eventStatus": "http://schema.org/EventScheduled",
    "organizer": {
      "@type": "Organization",
      "name": "Informationsbüro Leutasch",
      "address": {
        "@type": "PostalAddress",
        "streetAddress": "Weidach 320",
        "addressLocality": "Leutasch",
        "postalCode": "6105",
        "addressCountry": "AT",
        "telephone": "+43-50880510",
        "faxNumber": "+43-50880811",
        "email": "info.leutasch@seefeld.com",
        "url": "http://www.seefeld.com"
      }
    },
    "location": {
      "@type": "Place",
      "name": "Musikpavillon",
      "address": {
        "@type": "PostalAddress",
        "streetAddress": "Weidach 337",
        "addressLocality": "Leutasch",
        "postalCode": "6105",
        "addressCountry": "AT"
      }
    },
    "description": "Freier Eintritt!",
    "image": [
      {
        "@type": "ImageObject",
        "url": "http://resc.deskline.net/images/SEE/1/589d8f3a-4d43-48e9-ba3c-6bf5589da192/99/image.jpg",
        "caption": "mk"
      }
    ],
    "startDate": "2017-08-03T20:15:00",
    "endDate": "2017-08-03"
  },
  {
    "@context": "http://schema.org",
    "@type": [
      "Event"
    ],
    "name": "Platzkonzert der Musikkapelle Leutasch",
    "eventStatus": "http://schema.org/EventScheduled",
    "organizer": {
      "@type": "Organization",
      "name": "Informationsbüro Leutasch",
      "address": {
        "@type": "PostalAddress",
        "streetAddress": "Weidach 320",
        "addressLocality": "Leutasch",
        "postalCode": "6105",
        "addressCountry": "AT",
        "telephone": "+43-50880510",
        "faxNumber": "+43-50880811",
        "email": "info.leutasch@seefeld.com",
        "url": "http://www.seefeld.com"
      }
    },
    "location": {
      "@type": "Place",
      "name": "Musikpavillon",
      "address": {
        "@type": "PostalAddress",
        "streetAddress": "Weidach 337",
        "addressLocality": "Leutasch",
        "postalCode": "6105",
        "addressCountry": "AT"
      }
    },
    "description": "Freier Eintritt!",
    "image": [
      {
        "@type": "ImageObject",
        "url": "http://resc.deskline.net/images/SEE/1/589d8f3a-4d43-48e9-ba3c-6bf5589da192/99/image.jpg",
        "caption": "mk"
      }
    ],
    "startDate": "2017-08-10T20:15:00",
    "endDate": "2017-08-10"
  },
  {
    "@context": "http://schema.org",
    "@type": [
      "Event"
    ],
    "name": "Platzkonzert der Musikkapelle Leutasch",
    "eventStatus": "http://schema.org/EventScheduled",
    "organizer": {
      "@type": "Organization",
      "name": "Informationsbüro Leutasch",
      "address": {
        "@type": "PostalAddress",
        "streetAddress": "Weidach 320",
        "addressLocality": "Leutasch",
        "postalCode": "6105",
        "addressCountry": "AT",
        "telephone": "+43-50880510",
        "faxNumber": "+43-50880811",
        "email": "info.leutasch@seefeld.com",
        "url": "http://www.seefeld.com"
      }
    },
    "location": {
      "@type": "Place",
      "name": "Musikpavillon",
      "address": {
        "@type": "PostalAddress",
        "streetAddress": "Weidach 337",
        "addressLocality": "Leutasch",
        "postalCode": "6105",
        "addressCountry": "AT"
      }
    },
    "description": "Freier Eintritt!",
    "image": [
      {
        "@type": "ImageObject",
        "url": "http://resc.deskline.net/images/SEE/1/589d8f3a-4d43-48e9-ba3c-6bf5589da192/99/image.jpg",
        "caption": "mk"
      }
    ],
    "startDate": "2017-09-08T20:15:00",
    "endDate": "2017-09-08"
  }
]